City_ID,City,Lat,Lng,Max Temp,Humidity,Cloudiness,Wind Speed,Country,Date
0,kili,5.6439,169.1211,28.44,74,93,8.64,MH,1704295448
1,nemuro,43.3236,145.575,-1.99,68,100,2.97,JP,1704295448
2,villa yapacani,-17.4,-63.8333,29.47,69,100,0.21,BO,1704295448
3,broken hill,-31.95,141.4333,26.09,49,100,9.15,AU,1704295216
4,iqaluit,63.7506,-68.5145,-19.15,71,75,11.83,CA,1704295232
5,qaqortoq,60.7167,-46.0333,-4.96,78,100,2.97,GL,1704295448
6,zaragoza,41.6561,-0.8773,18.6,82,20,2.06,ES,1704295117
7,blackmans bay,-43.0167,147.3167,14.07,77,70,0.89,AU,1704295448
8,mount gambier,-37.8333,140.7667,15.67,87,100,4.92,AU,1704295449
9,raja,8.4596,25.678,31.46,13,30,3.2,SS,1704295449
10,akureyri,65.6835,-18.0878,2.96,75,75,1.03,IS,1704295208
11,ushuaia,-54.8,-68.3,15.79,66,0,2.57,AR,1704295448
12,bilibino,68.0546,166.4372,-34.37,100,70,0.79,RU,1704295449
13,flying fish cove,-10.4217,105.6791,25.82,88,40,1.54,CX,1704295449
14,vilyuysk,63.7553,121.6247,-37.78,100,91,1.34,RU,1704295449
15,thompson,55.7435,-97.8558,-25.91,76,20,2.57,CA,1704295449
16,whitehorse,60.7161,-135.0538,-12.72,83,100,1.03,CA,1704295449
17,rizokarpaso,35.6,34.375,17.24,72,25,7.81,CY,1704295449
18,utrik,11.2278,169.8474,26.85,77,97,10.13,MH,1704295449
19,rikaze,29.25,88.8833,-1.77,19,5,1.64,CN,1704295450
20,waitangi,-43.9535,-176.5597,13.23,90,93,3.29,NZ,1704295450
21,holualoa,19.6228,-155.9522,20.91,79,20,0.0,US,1704295450
22,luderitz,-26.6481,15.1594,22.66,76,15,6.25,NA,1704295450
23,kavaratti,10.5669,72.642,27.61,75,63,3.43,IN,1704295450
24,bethel,41.3712,-73.414,3.65,71,0,3.09,US,1704295322
25,cannonvale,-20.2833,148.7,26.66,84,14,2.04,AU,1704295450
26,sehwan,26.4279,67.863,18.72,25,0,1.65,PK,1704295450
27,georgetown,5.4112,100.3354,28.97,79,20,1.54,MY,1704295450
28,leh,34.1667,77.5833,-6.17,33,57,0.77,IN,1704295451
29,grytviken,-54.2811,-36.5092,2.73,64,97,1.26,GS,1704295451
30,st. john's,47.5649,-52.7093,1.82,84,100,4.63,CA,1704295451
31,sioux city,42.5,-96.4003,-4.23,88,100,3.6,US,1704295265
32,turpan,42.9333,89.1667,-1.51,54,94,0.33,CN,1704295451
33,wynyard,-41.0,145.7167,15.02,82,71,3.36,AU,1704295451
34,kapuskasing,49.4169,-82.4331,-11.95,85,100,3.6,CA,1704295451
35,puerto natales,-51.7236,-72.4875,18.25,36,75,4.63,CL,1704295330
36,hanzhong,33.0728,107.0303,6.34,66,1,1.2,CN,1704295451
37,college,64.8569,-147.8028,-17.82,74,20,3.09,US,1704295451
38,bredasdorp,-34.5322,20.0403,21.24,76,100,7.93,ZA,1704295451
39,punta arenas,-53.15,-70.9167,16.01,44,0,6.69,CL,1704295451
40,kapa'a,22.0752,-159.319,23.18,83,0,6.69,US,1704295293
41,isafjordur,66.0755,-23.124,2.02,75,0,1.03,IS,1704295452
42,adamstown,-25.066,-130.1015,23.75,84,100,3.12,PN,1704295452
43,port elizabeth,-33.918,25.5701,22.28,93,100,4.63,ZA,1704295267
44,olonkinbyen,70.9221,-8.7187,-1.27,95,100,8.11,SJ,1704295452
45,ventspils,57.3894,21.5606,-10.04,85,20,5.66,LV,1704295257
46,pochinki,54.6988,44.8668,-15.65,96,100,4.86,RU,1704295452
47,port-aux-francais,-49.35,70.2167,4.81,74,55,16.07,TF,1704295452
48,san patricio,28.017,-97.5169,11.2,81,52,5.64,US,1704295452
49,ilulissat,69.2167,-51.1,-3.99,39,20,7.2,GL,1704295452
50,nadym,65.5333,72.5167,-24.42,92,54,7.19,RU,1704295452
51,edinburgh of the seven seas,-37.0676,-12.3116,17.19,98,100,2.4,SH,1704295453
52,saint-pierre,-21.3393,55.4781,28.82,84,75,1.54,RE,1704295453
53,tarko-sale,64.9225,77.785,-28.16,97,96,4.48,RU,1704295453
54,molochnoye,59.2917,39.6787,-29.82,98,23,2.24,RU,1704295453
55,polyarnyy,69.1989,33.4478,-15.3,83,100,10.39,RU,1704295453
56,codrington,-38.2667,141.9667,15.39,88,100,6.37,AU,1704295453
57,papatowai,-46.5619,169.4708,10.14,84,100,2.2,NZ,1704295453
58,andergrove,-21.0833,149.1833,25.91,81,4,1.6,AU,1704295453
59,ha'il,27.5219,41.6907,13.01,76,40,4.12,SA,1704295174
60,carnarvon,-24.8667,113.6333,26.84,68,0,8.45,AU,1704295284
61,sinabang,2.4803,96.3801,26.31,84,100,0.77,ID,1704295453
62,menaka,15.9182,2.4022,32.18,6,2,5.03,ML,1704295454
63,stanley,54.868,-1.6985,6.51,95,75,0.51,GB,1704295404
64,fort bragg,35.139,-79.006,8.44,64,0,1.34,US,1704295454
65,port saint john's,-31.6229,29.5448,23.11,84,62,6.02,ZA,1704295454
66,hawaiian paradise park,19.5933,-154.9731,19.46,96,100,3.6,US,1704295454
67,gamba,-2.65,10.0,28.28,72,56,4.55,GA,1704295454
68,suez,29.9737,32.5263,18.22,56,90,3.26,EG,1704295397
69,kodiak,57.79,-152.4072,3.73,100,100,2.06,US,1704295454
70,pisco,-13.7,-76.2167,23.34,83,100,3.6,PE,1704295454
71,ash shatrah,31.4117,46.1742,18.03,46,6,3.7,IQ,1704295454
72,yellowknife,62.456,-114.3525,-26.99,83,40,4.63,CA,1704295454
73,margaret river,-33.95,115.0667,17.96,66,0,7.0,AU,1704295455
74,ko pha ngan,9.7578,100.0291,25.38,68,9,2.4,TH,1704295455
75,ribeira grande,38.5167,-28.7,18.22,82,40,6.69,PT,1704295455
76,tanumah,27.1,44.1333,16.68,55,38,3.45,SA,1704295455
77,puerto ayora,-0.7393,-90.3518,27.98,92,59,3.58,EC,1704295455
78,muisne,0.6,-80.0333,24.3,97,100,2.49,EC,1704295455
79,vadso,70.0744,29.7487,-13.91,78,75,7.72,NO,1704295455
80,puerto baquerizo moreno,-0.9,-89.6,25.55,89,40,5.66,EC,1704295455
81,ola,59.5833,151.2833,-25.95,91,67,2.84,RU,1704295455
82,aykhal,66.0,111.5,-31.1,98,100,0.87,RU,1704295455
83,invercargill,-46.4,168.35,12.79,92,100,0.45,NZ,1704295455
84,afaahiti,-17.75,-149.2833,25.93,83,100,8.83,PF,1704295456
85,udachny,66.4167,112.4,-40.31,72,98,0.67,RU,1704295157
86,touros,-5.1989,-35.4608,31.01,59,10,5.4,BR,1704295456
87,tiksi,71.6872,128.8694,-36.46,100,87,1.64,RU,1704295456
88,balabac,7.9868,117.0645,27.63,81,81,2.83,PH,1704295456
89,kindu,-2.95,25.95,27.01,73,84,0.31,CD,1704295456
90,anloga,5.7947,0.8973,29.5,69,99,5.63,GH,1704295456
91,mao,39.8885,4.2658,17.31,82,0,3.09,ES,1704295456
92,kabalo,-6.05,26.9167,25.2,91,76,1.52,CD,1704295456
93,iringa,-7.7667,35.7,19.89,86,100,0.89,TZ,1704295456
94,labrador city,52.9463,-66.9114,-17.05,85,75,2.06,CA,1704295456
95,curup,-3.4667,102.5333,21.01,99,100,0.71,ID,1704295456
96,nata,8.3333,-80.5167,28.79,65,9,4.37,PA,1704295457
97,tamanrasset,22.785,5.5228,24.95,9,0,2.57,DZ,1704295457
98,saint-denis,48.9167,2.3333,11.17,83,75,9.26,FR,1704295457
99,angaur state,6.906,134.13,28.9,76,23,5.05,PW,1704295457
100,west island,-12.1568,96.8225,26.99,83,40,5.14,CC,1704295457
101,east london,-33.0153,27.9116,21.52,94,100,5.14,ZA,1704295269
102,keflavik,64.0049,-22.5624,3.95,81,75,5.66,IS,1704295233
103,hammerfest,70.6634,23.6821,0.25,74,40,8.23,NO,1704295457
104,taroa,8.7058,171.2275,27.53,78,30,9.28,MH,1704295457
105,avarua,-21.2078,-159.775,24.03,94,75,6.69,CK,1704295176
106,mili,6.0815,171.735,28.07,76,100,8.79,MH,1704295457
107,formosa,-26.1775,-58.1781,31.65,52,0,1.79,AR,1704295457
108,forster,-32.1667,152.5167,19.6,100,49,3.12,AU,1704295458
109,saipan,15.1355,145.701,27.39,83,20,5.14,MP,1704295458
110,digapahandi,19.3667,84.5833,18.56,74,0,1.35,IN,1704295458
111,tura,25.5198,90.2201,14.85,68,0,1.31,IN,1704295458
112,megion,61.0296,76.1136,-36.66,99,9,3.02,RU,1704294791
113,atafu village,-8.5421,-172.5159,28.66,75,99,4.77,TK,1704295458
114,rio grande,-32.035,-52.0986,26.06,80,46,8.7,BR,1704295458
115,hermanus,-34.4187,19.2345,23.22,67,15,8.38,ZA,1704295290
116,visby,57.6409,18.296,-4.88,68,75,10.8,SE,1704295458
117,shakawe,-18.3667,21.85,28.72,45,78,1.4,BW,1704295458
118,minas de marcona,-15.2119,-75.1103,20.72,68,75,3.92,PE,1704295458
119,woolgoolga,-30.1106,153.2007,22.8,89,83,3.93,AU,1704295459
120,bridgewater,44.3835,-64.5155,0.79,84,77,1.54,CA,1704295459
121,itoman,26.1247,127.6694,17.21,51,40,10.29,JP,1704295459
122,talnakh,69.4865,88.3972,-30.55,86,99,3.89,RU,1704295278
123,port blair,11.6667,92.75,27.02,74,20,3.6,IN,1704295459
124,badalona,41.45,2.2474,19.08,70,0,4.02,ES,1704295418
125,arroyo,41.6096,-4.7969,12.34,75,20,5.14,ES,1704295459
126,gadzhiyevo,69.2551,33.3362,-15.64,84,100,11.18,RU,1704295459
127,saynshand,44.8824,110.1163,-8.05,79,99,5.08,MN,1704295459
128,brezina,33.0989,1.2608,19.22,17,1,3.23,DZ,1704295459
129,taoudenni,22.6783,-3.9836,25.78,12,100,5.56,ML,1704295459
130,constantia,44.1833,28.65,8.38,76,100,7.44,RO,1704295258
131,salinopolis,-0.6136,-47.3561,28.06,78,67,3.75,BR,1704295460
132,pangody,65.85,74.4859,-24.44,94,85,6.41,RU,1704295460
133,fortuna,40.5982,-124.1573,7.77,97,100,3.6,US,1704295460
134,jamestown,42.097,-79.2353,-0.25,98,100,4.63,US,1704295460
135,ust-nera,64.5667,143.2,-39.46,98,93,1.98,RU,1704295460
136,albany,42.6001,-73.9662,2.24,79,60,0.89,US,1704295460
137,uturoa,-16.7333,-151.4333,27.67,77,100,9.25,PF,1704295460
138,malango,-2.9627,119.9001,20.42,97,96,0.75,ID,1704295460
139,port moresby,-9.4431,147.1797,24.68,94,20,2.57,PG,1704295460
140,revda,56.801,59.9303,-19.24,95,100,5.11,RU,1704295460
141,kailua-kona,19.6406,-155.9956,22.98,79,20,0.45,US,1704295461
142,lompoc,34.6391,-120.4579,11.4,86,100,5.81,US,1704295461
143,driffield,54.0049,-0.4387,9.06,91,100,1.54,GB,1704295461
144,mirzapur,25.15,82.5833,15.98,63,3,1.99,IN,1704295461
145,carora,10.1755,-70.0827,27.84,57,99,2.87,VE,1704295461
146,kamaishi,39.2667,141.8833,3.94,97,100,4.55,JP,1704295461
147,port alfred,-33.5906,26.891,21.47,88,99,7.26,ZA,1704295461
148,papao,-17.75,-149.55,26.82,83,100,10.34,PF,1704295461
149,calbuco,-41.768,-73.1273,16.56,78,96,3.85,CL,1704295461
150,pandan,14.0453,124.1694,26.27,85,45,3.88,PH,1704295461
151,jalai nur,49.45,117.7,-16.92,94,100,5.32,CN,1704295461
152,abepura,-2.6333,140.5833,25.45,94,20,0.51,ID,1704295462
153,ciudad bolivar,8.1222,-63.5497,31.91,44,72,4.91,VE,1704295462
154,kitaibaraki,36.7833,140.75,7.86,99,100,2.64,JP,1704295462
155,huambo,-12.7761,15.7392,19.58,69,100,2.0,AO,1704295462
156,rogatec,46.2294,15.7003,11.31,76,4,4.3,SI,1704295462
157,susuman,62.7833,148.1667,-37.23,100,100,0.45,RU,1704295248
158,wenchang,30.904,118.4887,5.42,73,0,1.62,CN,1704295443
159,burang,30.25,81.1667,-8.73,52,0,1.36,CN,1704295462
160,tostedt,53.2833,9.7167,8.79,86,82,8.42,DE,1704295462
161,sao jose da coroa grande,-8.8978,-35.1478,30.02,64,58,5.84,BR,1704295462
162,enewetak,11.3474,162.3373,27.37,77,88,10.06,MH,1704295462
163,vilyuchinsk,52.9306,158.4028,-12.85,77,45,3.54,RU,1704295463
164,khandyga,62.6667,135.6,-31.74,100,100,0.64,RU,1704295463
165,aqadyr,48.2553,72.8483,-11.34,83,15,2.89,KZ,1704295463
166,alness,57.696,-4.2551,7.87,95,100,2.34,GB,1704295463
167,huarmey,-10.0681,-78.1522,23.65,78,83,3.39,PE,1704295463
168,aasiaat,68.7098,-52.8699,-15.16,89,100,3.93,GL,1704295463
169,martapura,-3.4167,114.85,29.05,84,40,2.06,ID,1704295463
170,harper,4.375,-7.7169,29.68,65,69,3.81,LR,1704295463
171,chenzhou,25.8,113.0333,7.4,76,0,0.6,CN,1704295463
172,lagoa,39.05,-27.9833,16.2,84,100,9.33,PT,1704295463
173,namibe,-15.1961,12.1522,24.77,60,100,4.96,AO,1704295463
174,muynoq,43.7683,59.0214,3.76,61,100,6.04,UZ,1704295464
175,hotan,37.0997,79.9269,-0.2,39,100,1.46,CN,1704295464
176,cabo san lucas,22.8909,-109.9124,19.31,77,0,4.12,MX,1704295464
177,bulayevo,54.9056,70.4439,-21.49,97,100,2.81,KZ,1704295464
178,verona,45.4167,11.0333,10.17,81,51,2.06,IT,1704295325
179,cecina,43.3128,10.524,17.79,75,77,2.15,IT,1704295464
180,fale old settlement,-9.3852,-171.2468,28.7,77,100,5.47,TK,1704295464
181,yelizovo,53.1873,158.3805,-12.92,66,40,4.02,RU,1704295464
182,zag,46.9441,99.165,-24.2,84,1,2.27,MN,1704295464
183,anadyr,64.75,177.4833,-17.72,91,20,7.0,RU,1704295464
184,port mathurin,-19.6833,63.4167,28.02,79,100,4.28,MU,1704295324
185,labuan,5.2767,115.2417,27.2,94,40,1.03,MY,1704295465
186,iskateley,67.6803,53.1512,-8.86,91,100,7.83,RU,1704295213
187,pochinok,54.4068,32.4407,-15.71,91,17,5.14,RU,1704295465
188,pathein,16.7833,94.7333,20.05,86,43,2.74,MM,1704295465
189,remire-montjoly,4.9167,-52.2667,31.02,62,75,7.72,GF,1704295465
190,dinguiraye,11.3,-10.7167,34.46,9,97,1.86,GN,1704295465
191,kenai,60.5544,-151.2583,-2.14,74,20,9.77,US,1704295465
192,ugoofaaru,5.6667,73.0,28.16,76,38,4.37,MV,1704295465
193,sandnessjoen,66.0217,12.6316,-6.94,32,0,2.57,NO,1704295465
194,sola,-13.8833,167.55,26.48,82,100,3.54,VU,1704295465
195,kikwit,-5.041,18.8162,27.83,70,71,1.69,CD,1704295466
196,amuntai,-2.4177,115.2494,25.65,92,100,0.47,ID,1704295466
197,dudinka,69.4058,86.1778,-35.74,99,100,2.68,RU,1704295466
198,wailua homesteads,22.0669,-159.378,22.44,83,0,6.69,US,1704295466
199,nar'yan-mar,67.6713,53.087,-8.83,91,100,7.92,RU,1704295466
200,morshansk,53.4435,41.8107,-18.41,95,100,4.27,RU,1704295466
201,mata-utu,-13.2816,-176.1745,28.18,77,44,3.97,WF,1704295466
202,artova,40.1158,36.3001,7.21,67,100,3.51,TR,1704295466
203,mcalester,34.9334,-95.7697,2.05,87,40,0.0,US,1704295466
204,saldanha,-33.0117,17.9442,31.03,73,51,5.29,ZA,1704295466
205,klyuchi,52.2667,79.1667,-13.59,94,100,1.58,RU,1704295466
206,salekhard,66.53,66.6019,-14.71,84,100,7.98,RU,1704295467
207,macheng,31.1783,115.0319,5.83,61,5,1.46,CN,1704295467
208,colonia,50.9333,6.95,11.14,83,20,3.09,DE,1704295461
209,bantogon,6.5333,124.0333,26.81,79,46,1.51,PH,1704295467
210,lihue,21.9789,-159.3672,22.77,78,0,6.69,US,1704295467
211,lebu,-37.6167,-73.65,17.24,77,54,6.52,CL,1704295467
212,morehead city,34.7229,-76.726,11.13,62,0,3.09,US,1704295467
213,tralee,52.2704,-9.7026,8.14,93,100,4.63,IE,1704295197
214,tezu,27.9167,96.1667,15.53,45,24,2.21,IN,1704295467
215,ouarzazat,30.9189,-6.8934,20.16,13,0,1.03,MA,1704295467
216,undurkhaan,47.3194,110.6556,-11.46,84,10,4.31,MN,1704295467
217,smithers,54.7804,-127.1743,-2.82,100,100,1.54,CA,1704295468
218,sterling,39.0062,-77.4286,6.2,60,40,4.63,US,1704295443
219,vorgashor,67.5833,63.95,-20.44,98,100,7.66,RU,1704295468
220,vandalia,39.8906,-84.1988,0.06,89,75,5.66,US,1704295217
221,nettuno,41.4826,12.679,16.0,78,99,3.05,IT,1704295444
222,powell river,49.8496,-124.5361,8.15,93,100,1.54,CA,1704295468
223,n'zeto,-7.2312,12.8666,24.41,73,100,4.88,AO,1704295468
224,pali,25.7667,73.3333,16.92,29,0,3.71,IN,1704295200
225,alvear,-29.0968,-56.5504,26.94,66,16,5.19,AR,1704295468
226,longyearbyen,78.2186,15.6401,-12.09,61,75,3.6,SJ,1704295468
227,novyy buh,47.6931,32.5216,5.4,85,100,6.48,UA,1704295468
228,neryungri,56.6709,124.6491,-32.43,100,82,1.49,RU,1704295170
229,bata,1.8639,9.7658,29.02,70,37,3.51,GQ,1704295468
230,port lincoln,-34.7333,135.8667,17.0,95,100,5.92,AU,1704295469
231,sitka,57.0531,-135.33,5.94,81,75,4.12,US,1704295469
232,lobujya,27.95,86.8167,-17.91,62,9,1.41,NP,1704295469
233,dunedin,-45.8742,170.5036,12.67,91,100,1.79,NZ,1704295469
234,olyokminsk,60.3736,120.4264,-34.66,100,79,0.59,RU,1704295469
235,mapimi,25.8167,-103.85,9.98,43,0,1.8,MX,1704295469
236,tolanaro,-25.0319,46.9987,25.04,83,75,5.14,MG,1704295469
237,golfito,8.639,-83.166,27.98,66,25,0.24,CR,1704295469
238,san luis de la loma,17.2706,-100.8939,25.76,39,32,1.17,MX,1704295469
239,hamilton,39.1834,-84.5333,1.42,86,0,3.6,US,1704295377
240,santyoku,37.4406,129.1708,1.54,75,4,3.45,KR,1704295469
241,zarah sharan,33.1467,68.7917,3.97,41,100,0.33,AF,1704295470
242,vila velha,-20.3297,-40.2925,28.97,70,100,5.14,BR,1704295305
243,conde,-7.2597,-34.9075,30.7,66,75,4.63,BR,1704295470
244,la passe,45.5549,-0.8967,13.13,76,22,11.38,FR,1704295470
245,okhotsk,59.3833,143.3,-30.74,82,12,3.56,RU,1704295470
246,richards bay,-28.783,32.0377,24.99,64,37,4.85,ZA,1704295352
247,takoradi,4.8845,-1.7554,29.81,64,85,3.74,GH,1704295470
248,nova vicosa,-17.8919,-39.3719,29.55,65,100,5.02,BR,1704295470
249,bourg-saint-andeol,44.3757,4.6427,11.62,91,100,1.91,FR,1704295470
250,banda aceh,5.5577,95.3222,26.28,82,95,3.09,ID,1704295470
251,robore,-18.3333,-59.75,27.05,94,75,0.0,BO,1704295470
252,mugia,43.1041,-9.2179,14.95,86,100,6.83,ES,1704295470
253,pitimbu,-7.4706,-34.8086,31.33,68,82,5.04,BR,1704295471
254,thinadhoo,0.5333,72.9333,28.74,70,100,0.69,MV,1704295471
255,saint croix,17.7397,-64.7388,28.25,75,0,3.6,VI,1704295471
256,antalaha,-14.9003,50.2788,28.47,78,100,1.25,MG,1704295471
257,tromso,69.6496,18.957,-7.99,67,0,4.12,NO,1704295222
258,north battleford,52.7834,-108.2847,-8.66,86,100,3.09,CA,1704295471
259,kouango,4.9934,19.9619,36.84,14,99,1.02,CF,1704295471
260,coquimbo,-29.9533,-71.3436,18.85,77,100,2.57,CL,1704295179
261,bowen,-20.0167,148.2333,27.11,81,9,3.03,AU,1704295471
262,badger,64.8,-147.5333,-17.86,75,20,3.09,US,1704295471
263,calama,-22.4667,-68.9333,22.27,24,0,4.12,CL,1704295471
264,kariba,-16.5167,28.8,28.95,55,63,2.0,ZW,1704295472
265,egilsstadir,65.2653,-14.3948,0.95,86,75,3.09,IS,1704295472
266,margate,51.3813,1.3862,10.94,77,81,4.92,GB,1704295472
267,saint-philippe,-21.3585,55.7679,28.77,80,100,2.97,RE,1704295472
268,kingston,17.997,-76.7936,27.53,78,20,3.6,JM,1704295472
269,amursk,50.2261,136.8994,-21.0,98,100,3.15,RU,1704295472
270,petropavlovsk-kamchatsky,53.0452,158.6483,-13.67,80,40,4.0,RU,1704295416
271,dodge city,37.7528,-100.0171,0.14,88,0,2.57,US,1704295472
272,'ain benian,36.8028,2.9219,22.03,49,48,2.82,DZ,1704295472
273,khovd,48.0056,91.6419,-11.41,45,12,3.54,MN,1704295472
274,acarau,-2.8856,-40.12,30.43,62,95,5.39,BR,1704295333
275,kerikeri,-35.2268,173.9474,14.95,89,77,1.95,NZ,1704295473
276,washington,47.5001,-120.5015,3.14,87,100,0.64,US,1704295244
277,calafell,41.2,1.5683,19.23,44,100,5.8,ES,1704295317
278,ramhormoz,31.28,49.6035,16.5,38,6,3.32,IR,1704295473
279,safford,32.834,-109.7076,1.51,86,0,0.0,US,1704295473
280,bontang,0.1333,117.5,27.48,83,100,2.22,ID,1704295473
281,tsuruoka,38.7217,139.8217,6.3,91,100,1.75,JP,1704295473
282,ta`u,-14.2336,-169.5144,28.06,77,21,6.05,AS,1704295473
283,nerchinsk,51.9833,116.5833,-18.49,95,100,1.43,RU,1704295473
284,concordia,-31.393,-58.0209,27.66,67,4,2.68,AR,1704295473
285,wanlaweyn,2.6185,44.8938,32.11,28,79,5.24,SO,1704295473
286,howard springs,-12.497,131.047,27.95,94,100,0.8,AU,1704295473
287,moussoro,13.6408,16.4901,32.63,7,5,5.74,TD,1704295474
288,usinsk,65.9939,57.5281,-21.07,95,100,8.05,RU,1704295474
289,westport,41.1415,-73.3579,4.71,67,0,3.09,US,1704295474
290,santo antonio,-6.3106,-35.4789,33.9,42,59,4.54,BR,1704295474
291,porto novo,6.4965,2.6036,31.9,52,99,4.98,BJ,1704295474
292,novodvinsk,64.4165,40.8122,-19.14,100,64,1.31,RU,1704295365
293,gornozavodsk,58.3758,58.3211,-23.87,90,99,4.48,RU,1704295474
294,sinsang-ni,39.6503,127.4058,-3.6,85,5,2.26,KP,1704295474
295,tobelo,1.7284,128.0095,27.21,84,100,2.02,ID,1704295474
296,tevriz,57.509,72.4042,-37.76,100,13,0.55,RU,1704295423
297,tostado,-29.232,-61.7692,33.32,44,3,0.58,AR,1704295474
298,pindushi,62.9152,34.58,-32.95,100,26,0.56,RU,1704295474
299,arteche,12.2645,125.4048,25.29,82,81,1.75,PH,1704295475
300,dihok,36.8695,42.994,9.4,65,74,1.31,IQ,1704295210
301,kota kinabalu,5.9749,116.0724,25.99,94,20,0.89,MY,1704295407
302,baykal'sk,51.5058,104.1469,-4.05,86,100,1.88,RU,1704295475
303,grand falls-windsor,48.9332,-55.6649,-0.28,77,97,1.34,CA,1704295475
304,vilhena,-12.7406,-60.1458,28.12,74,75,6.69,BR,1704295475
305,paphos,34.7667,32.4167,17.88,72,20,4.12,CY,1704295262
306,caslav,49.911,15.3897,10.93,66,75,7.72,CZ,1704295475
307,birao,10.2849,22.7882,33.5,8,86,4.07,CF,1704295475
308,tannum sands,-23.9504,151.3693,24.3,88,1,1.54,AU,1704295475
309,berbera,10.4396,45.0143,25.61,64,6,4.25,SO,1704295475
310,greymouth,-42.4667,171.2,11.81,90,98,1.58,NZ,1704295475
311,labytnangi,66.6572,66.4183,-15.77,86,100,6.46,RU,1704295475
312,battagram,34.6772,73.0233,9.11,27,88,2.23,PK,1704295476
313,severo-yeniseyskiy,60.3725,93.0408,-23.47,98,100,2.33,RU,1704295476
314,tsiombe,-25.3,45.4833,23.9,79,90,5.89,MG,1704295476
315,mae chai,19.346,99.814,19.81,66,0,0.89,TH,1704295476
316,antonio enes,-16.2325,39.9086,28.12,77,100,6.26,MZ,1704295476
317,loukhi,66.0764,33.0381,-19.62,95,64,2.74,RU,1704295476
318,hasaki,35.7333,140.8333,7.94,80,100,5.69,JP,1704295476
319,sukumo,32.9333,132.7333,8.4,76,73,6.58,JP,1704295476
320,arraial do cabo,-22.9661,-42.0278,26.98,83,100,7.2,BR,1704295476
321,luau,-10.7073,22.2247,20.39,86,99,2.14,AO,1704295476
322,haiku-pauwela,20.9219,-156.3051,22.8,82,40,2.06,US,1704295477
323,kununurra,-15.7667,128.7333,26.99,89,40,1.54,AU,1704295477
324,sabang,5.8933,95.3214,28.02,77,99,6.81,ID,1704295477
325,talcahuano,-36.7167,-73.1167,19.82,64,0,4.63,CL,1704295241
326,xining,36.6167,101.7667,-2.68,26,0,0.68,CN,1704295477
327,harsova,44.6833,27.9333,9.66,69,100,6.33,RO,1704295477
328,meadow lakes,61.6247,-149.6011,-3.75,65,0,7.72,US,1704295477
329,horishni plavni,49.0097,33.6455,-1.12,94,100,5.66,UA,1704295477
330,dalbandin,28.8947,64.4101,15.52,39,0,1.71,PK,1704295477
331,kargasok,59.0556,80.8572,-31.69,98,81,2.68,RU,1704295477
332,sambava,-14.2667,50.1667,28.75,76,100,1.53,MG,1704295478
333,bodaybo,57.8506,114.1933,-19.54,96,100,0.67,RU,1704295478
334,tuban,-6.8976,112.0649,27.06,84,100,1.19,ID,1704295478
335,san antonio de pale,-1.4014,5.6325,27.66,76,100,5.39,GQ,1704295478
336,whakatane,-37.9585,176.9854,15.99,88,90,0.32,NZ,1704295478
337,longmont,40.1672,-105.1019,2.96,69,0,2.06,US,1704295478
338,belmonte,-15.8631,-38.8828,30.57,63,96,4.86,BR,1704295478
339,archangelos,36.2149,28.1149,16.99,70,51,2.06,GR,1704295478
340,punta cardon,11.6581,-70.215,28.29,66,9,6.28,VE,1704295478
341,new norfolk,-42.7826,147.0587,14.72,97,94,1.31,AU,1704295183
342,le vauclin,14.5452,-60.8388,30.03,66,20,6.17,MQ,1704295478
343,tazovsky,67.4667,78.7,-24.1,93,100,5.6,RU,1704295416
344,pumiao,22.75,108.4833,12.22,47,62,2.81,CN,1704295479
345,priargunsk,50.3691,119.1012,-16.6,96,100,2.99,RU,1704295366
346,ulsteinvik,62.3432,5.8487,-0.93,61,99,4.87,NO,1704295479
347,husiatyn,49.0726,26.2141,7.99,100,100,6.77,UA,1704295479
348,kampong speu,11.5,104.3333,25.49,63,10,2.0,KH,1704295479
349,shiyan,32.6475,110.7781,6.89,57,22,0.66,CN,1704295479
350,harrison,30.4091,-89.0436,9.04,94,100,2.06,US,1704295479
351,mohr,54.3528,9.7167,7.88,91,75,11.83,DE,1704295479
352,saint-francois,46.4154,3.9054,13.69,57,75,8.75,FR,1704295479
353,huaraz,-9.5333,-77.5333,14.85,70,100,0.84,PE,1704295262
354,wang saphung,17.301,101.7685,23.19,54,2,1.19,TH,1704295479
355,punta alta,-38.8759,-62.0736,28.05,35,17,1.53,AR,1704295480
356,bardai,11.65,7.2333,32.05,11,28,2.81,NG,1704295480
357,sao joao da barra,-21.6403,-41.0511,29.05,92,100,1.91,BR,1704295480
358,hithadhoo,-0.6,73.0833,28.64,72,79,1.28,MV,1704295480
359,magadan,59.5667,150.8,-25.48,85,66,2.28,RU,1704295480
360,puerto lempira,15.2667,-83.7667,28.08,74,75,0.0,HN,1704295480
361,menongue,-14.6585,17.691,27.43,48,94,1.39,AO,1704295480
362,yeraliyev,43.2,51.65,8.84,86,100,8.89,KZ,1704295480
363,brush,40.2589,-103.6238,-3.07,100,4,5.14,US,1704295480
364,marovoay,-16.1,46.6333,27.92,78,100,3.62,MG,1704295480
365,fomboni,-12.28,43.7425,28.91,74,100,2.47,KM,1704295480
366,mahina,-17.5065,-149.489,26.87,83,75,2.06,PF,1704295480
367,acajutla,13.5928,-89.8275,28.65,52,16,0.7,SV,1704295481
368,castillos,-34.1667,-53.8333,24.63,57,10,6.59,UY,1704295481
369,kudat,6.8837,116.8477,28.96,84,89,2.57,MY,1704295481
370,shaowu,27.3409,117.4831,5.84,84,2,0.46,CN,1704295265
371,alice springs,-23.7,133.8833,27.75,32,99,0.0,AU,1704295481
372,ballina,-28.8667,153.5667,22.66,90,47,3.06,AU,1704295481
373,bartica,6.4,-58.6167,33.18,42,13,2.68,GY,1704295481
374,rio verde,21.9333,-99.9833,16.75,60,19,0.68,MX,1704295481
375,tomohon,1.3346,124.8392,21.52,94,100,0.1,ID,1704295481
376,karystos,38.0133,24.4161,16.55,69,94,3.53,GR,1704295481
377,filadelfia,39.9523,-75.1638,4.56,71,20,2.06,US,1704295481
378,big spring,32.2504,-101.4787,3.46,93,100,3.6,US,1704295481
379,kayyerkan,69.3786,87.7439,-29.94,96,99,2.41,RU,1704295482
380,bom jesus,-9.0744,-44.3586,28.17,70,96,1.11,BR,1704295400
381,barinitas,8.7622,-70.4111,29.61,44,93,1.95,VE,1704295482
382,mount isa,-20.7333,139.5,26.87,57,75,2.57,AU,1704295482
383,coahuayana de hidalgo,18.7,-103.6583,23.74,51,4,1.13,MX,1704295482
384,harstad,68.799,16.5293,-21.34,69,37,2.38,NO,1704294753
385,verkh-chebula,56.0308,87.6218,-16.61,90,100,6.88,RU,1704295482
386,ocean shores,46.9737,-124.1563,8.34,90,100,4.63,US,1704295482
387,praia da vitoria,38.7333,-27.0667,19.14,63,20,4.92,PT,1704295482
388,changyon,38.2508,125.0961,0.05,75,7,1.31,KP,1704295482
389,lubang,13.8584,120.124,27.78,77,70,3.2,PH,1704295482
390,mount pearl,47.5166,-52.7813,1.36,84,100,4.63,CA,1704295482
391,kachug,53.9606,105.8817,-11.22,97,100,1.9,RU,1704295257
392,daru,-9.0763,143.2092,27.9,85,100,4.34,PG,1704295482
393,al jawf,29.5,38.75,14.59,51,0,2.39,SA,1704295483
394,mariental,-24.6333,17.9667,34.8,18,53,3.9,NA,1704295483
395,ierapetra,35.01,25.7353,18.41,64,4,1.79,GR,1704295325
396,port douglas,-16.4833,145.4667,27.57,75,90,2.11,AU,1704295483
397,shatura,55.5725,39.5368,-21.73,97,97,2.49,RU,1704295483
398,zuwarah,32.9312,12.082,18.09,52,2,5.05,LY,1704295483
399,guarapari,-20.6667,-40.4975,24.49,92,100,3.21,BR,1704295408
400,waingapu,-9.6567,120.2641,28.08,81,43,1.72,ID,1704295483
401,albertina,-22.2008,-46.6158,26.41,64,99,1.71,BR,1704295483
402,chonchi,-42.6128,-73.8092,18.56,46,56,0.84,CL,1704295483
403,tiznit,29.5833,-9.5,23.63,16,0,4.81,MA,1704295483
404,maceio,-9.6658,-35.7353,32.69,62,75,6.69,BR,1704295484
405,luza,60.6308,47.2512,-27.78,97,6,2.1,RU,1704295484
406,northam,51.0333,-4.2167,12.03,94,96,10.42,GB,1704295484
407,cururupu,-1.8283,-44.8683,28.02,79,97,2.08,BR,1704295484
408,kaka,37.3482,59.6143,11.34,33,85,1.27,TM,1704295484
409,kalmunai,7.4167,81.8167,25.76,81,56,4.15,LK,1704295484
410,burao,9.5221,45.5336,21.68,43,18,5.53,SO,1704295484
411,sangsong-ni,39.1694,126.8856,-6.58,98,66,1.36,KP,1704295484
412,solwezi,-12.1688,26.3894,20.65,93,100,3.39,ZM,1704295484
413,tra mhor,52.1624,-7.1524,9.54,70,40,4.63,IE,1704295484
414,mana,5.6592,-53.7767,29.26,64,45,5.79,GF,1704295485
415,kavieng,-2.5744,150.7967,27.94,78,43,2.66,PG,1704295485
416,ploneour-lanvern,47.9,-4.2833,11.18,82,75,8.75,FR,1704295485
417,sitia,35.2,26.0986,18.32,74,9,2.43,GR,1704295069
418,fredericksburg,38.3032,-77.4605,5.32,72,0,1.54,US,1704295485
419,gewane,10.1664,40.6453,30.72,22,4,5.32,ET,1704295485
420,amos,48.5669,-78.1162,-8.29,90,100,1.51,CA,1704295485
421,kirovskiy,45.0917,133.5136,-18.41,98,15,1.61,RU,1704295485
422,deridder,30.8463,-93.289,7.98,93,0,2.57,US,1704295458
423,san julian,21.0167,-102.1667,11.52,46,3,0.46,MX,1704295485
424,ketchikan,55.3422,-131.6461,6.99,93,100,2.57,US,1704295485
425,deqen,29.9618,90.7188,-2.27,35,74,1.96,CN,1704295485
426,hirara,24.8,125.2833,17.92,67,100,10.29,JP,1704295486
427,sinjar,36.3209,41.8754,10.02,66,53,0.11,IQ,1704295445
428,fisterra,42.9049,-9.2629,14.86,86,100,6.02,ES,1704295486
429,puerto aysen,-45.4,-72.7,21.13,51,96,1.61,CL,1704295486
430,puerto ayacucho,5.6639,-67.6236,32.92,46,65,3.3,VE,1704295486
431,sur,22.5667,59.5289,23.85,65,0,1.74,OM,1704295278
432,colon,9.3592,-79.9014,26.62,75,48,4.47,PA,1704295486
433,calingasta,-31.3308,-69.4078,27.37,33,17,1.62,AR,1704295486
434,cidreira,-30.1811,-50.2056,21.21,92,99,7.8,BR,1704295486
435,vila franca do campo,37.7167,-25.4333,18.27,99,85,5.0,PT,1704295486
436,medina,24.4686,39.6142,24.24,23,0,2.06,SA,1704295193
437,nelson bay,-32.7167,152.15,23.38,91,34,2.68,AU,1704295486
438,qianzhou,28.3167,109.7167,8.14,71,7,0.58,CN,1704295486
439,sihanoukville,10.6093,103.5296,25.97,89,20,1.54,KH,1704295487
440,ghadamis,30.1337,9.5007,17.33,29,0,1.74,LY,1704295487
441,jining,35.405,116.5814,1.85,48,0,3.83,CN,1704295487
442,nova sintra,14.8667,-24.7167,21.8,66,73,9.56,CV,1704295487
443,as saffaniyah,27.9708,48.73,18.49,56,0,4.98,SA,1704295487
444,camana,-16.6228,-72.7111,22.83,78,100,3.46,PE,1704295487
445,kyren,51.6828,102.1408,-9.47,77,100,1.79,RU,1704295228
446,sumbawa besar,-8.5,117.4333,25.75,88,100,1.1,ID,1704295487
447,uthal,25.8072,66.6219,22.51,61,20,2.87,PK,1704295487
448,al ghayzah,16.2079,52.176,24.87,65,10,4.24,YE,1704295487
449,nguigmi,14.2495,13.1092,29.71,14,55,4.53,NE,1704295488
450,viedma,-40.8135,-62.9967,31.01,27,35,6.32,AR,1704295047
451,talladega,33.4359,-86.1058,3.37,100,0,0.0,US,1704295488
452,ambovombe,-25.1667,46.0833,23.36,80,88,7.44,MG,1704295488
453,selibaby,15.159,-12.1829,35.93,7,12,4.57,MR,1704295488
454,puerto santa,-8.9906,-78.6456,22.88,81,94,3.63,PE,1704295488
455,taber,49.8167,-112.1518,-5.99,97,100,2.57,CA,1704295488
456,thunder bay,48.4001,-89.3168,-8.01,57,75,6.17,CA,1704295488
457,malanje,-9.5402,16.341,19.5,96,100,1.61,AO,1704295488
458,berezovyy,51.6667,135.7,-20.74,99,100,0.4,RU,1704295488
459,ponta delgada,37.7333,-25.6667,18.44,67,20,5.66,PT,1704295489
460,prado,-17.3411,-39.2208,28.97,68,98,5.73,BR,1704295489
461,palmer,42.1584,-72.3287,3.23,62,83,3.14,US,1704295489
462,weno,7.4515,151.8468,26.97,94,75,2.57,FM,1704295489
463,wenling,28.3669,121.36,6.54,71,0,3.77,CN,1704295489
464,la'ie,21.6477,-157.9253,23.39,69,73,0.89,US,1704295489
465,lisakovsk,52.5369,62.4936,-3.32,92,100,4.81,KZ,1704295489
466,basco,20.4487,121.9702,22.93,77,100,15.24,PH,1704295489
467,garachico,28.7781,-17.7646,20.06,83,75,1.03,ES,1704295489
468,kasama,-10.2129,31.1808,21.02,87,98,2.87,ZM,1704295490
469,emerald,-23.5333,148.1667,24.08,74,5,5.17,AU,1704295490
470,galliano,29.4422,-90.2992,10.56,91,100,10.88,US,1704295490
471,manastirea,44.2167,26.9,10.01,74,100,6.8,RO,1704295490
472,san fernando de apure,7.8878,-67.4724,32.93,42,3,5.16,VE,1704295490
473,morant bay,17.8815,-76.4093,27.79,81,55,6.02,JM,1704295490
474,elassona,39.8947,22.1886,8.63,70,100,1.68,GR,1704295490
475,hilo,19.7297,-155.09,19.79,99,100,3.6,US,1704295490
476,linqiong,30.4159,103.4609,5.9,60,100,0.49,CN,1704295490
477,bikenibeu village,1.3673,173.1241,28.98,84,75,5.66,KI,1704295491
478,perelyub,51.8667,50.3667,1.51,98,100,6.95,RU,1704295491
479,bokani,9.4333,5.2,38.92,9,15,0.99,NG,1704295491
480,trujillo,-8.116,-79.03,23.98,73,88,4.63,PE,1704295154
481,horta,38.5333,-28.6333,17.8,84,40,6.69,PT,1704295491
482,priozersk,61.0393,30.1291,-15.26,93,100,3.16,RU,1704295491
483,fuding,27.3273,120.214,7.08,76,0,0.93,CN,1704295491
484,el calafate,-50.3408,-72.2768,14.9,51,50,2.61,AR,1704295491
485,medvezh'yegorsk,62.9167,34.4667,-32.48,100,27,0.57,RU,1704295491
486,aguas de lindoia,-22.4764,-46.6328,27.91,57,100,2.17,BR,1704295491
487,garoowe,8.4054,48.4845,27.13,18,82,4.74,SO,1704295491
488,scarborough,54.2797,-0.4044,8.7,92,100,2.01,GB,1704295491
489,hankasalmi,62.3833,26.4333,-27.83,100,53,1.1,FI,1704295492
490,butterworth,5.3991,100.3638,29.03,79,20,1.54,MY,1704295492
491,namdrik,5.5994,168.1028,28.29,78,65,8.7,MH,1704295492
492,manggar,-2.8833,108.2667,26.16,90,100,1.84,ID,1704295492
493,kosh-agach,50.0,88.6667,-15.94,95,100,0.45,RU,1704295431
494,saint joseph,39.7686,-94.8466,-1.22,93,100,0.0,US,1704295492
495,naha,26.2125,127.6811,17.15,51,40,10.29,JP,1704295492
496,uyuni,-20.4597,-66.825,16.4,40,35,0.64,BO,1704295492
497,covington,39.0837,-84.5086,1.8,82,0,3.6,US,1704295492
498,yellandu,17.6,80.3333,21.03,74,37,3.01,IN,1704295492
499,lucas,41.6501,-83.6666,1.08,87,100,3.6,US,1704295492
500,carrara,44.0629,10.0607,14.81,93,75,3.13,IT,1704295493
501,aral,40.5156,81.2636,-1.12,39,100,1.82,CN,1704295493
502,naze,28.3667,129.4833,13.51,65,100,9.87,JP,1704295493
503,shingu,33.7333,135.9833,9.94,89,100,2.12,JP,1704295493
504,manali,13.1667,80.2667,27.05,70,74,4.6,IN,1704295493
505,bubaque,11.2833,-15.8333,26.63,62,2,4.04,GW,1704295493
506,val-des-monts,45.6501,-75.666,1.14,83,100,2.57,CA,1704295493
507,ostrov,57.3439,28.3537,-21.82,81,74,5.14,RU,1704295199
508,minzhu,43.7286,127.3447,-15.8,100,98,0.36,CN,1704295493
509,ancud,-41.8697,-73.8203,16.78,74,21,2.8,CL,1704295493
510,laguna,38.421,-121.4238,8.69,94,100,2.06,US,1704295493
511,fort portal,0.6617,30.2748,24.44,50,95,0.96,UG,1704295494
512,genhe,50.7833,121.5167,-19.0,98,100,1.43,CN,1704295494
513,bandon,51.7469,-8.7425,8.77,83,20,7.51,IE,1704295494
514,gutierrez zamora,20.45,-97.0833,22.9,89,100,6.11,MX,1704295494
515,tambovka,50.0969,128.0489,-24.45,100,87,1.79,RU,1704295494
516,cruzeiro do sul,-29.5128,-51.9853,29.18,66,85,0.09,BR,1704295494
517,san borja,-14.8167,-66.85,30.33,68,100,2.38,BO,1704295494
518,fasa,28.9383,53.6482,11.58,54,40,2.06,IR,1704295486
519,nizhniy kuranakh,58.8353,125.4869,-33.95,99,51,0.9,RU,1704295494
520,nema,57.5067,50.5011,-19.53,89,100,5.61,RU,1704295494
521,sooke,48.3746,-123.7276,8.07,85,99,7.2,CA,1704295494
522,crane,31.3974,-102.3501,6.02,73,0,2.26,US,1704295495
523,itupiranga,-5.1347,-49.3267,29.18,63,97,2.04,BR,1704295495
524,kismayo,-0.3582,42.5454,27.44,76,8,7.39,SO,1704295495
525,minot air force base,48.4209,-101.3391,-6.9,73,100,2.06,US,1704295495
526,chiredzi,-21.05,31.6667,28.99,58,0,1.54,ZW,1704295495
527,siyabuswa,-25.1132,29.0445,32.91,25,59,2.99,ZA,1704295495
528,chibougamau,49.9168,-74.3659,-10.21,85,100,1.54,CA,1704295495
529,nogliki,51.8333,143.1667,-23.14,100,62,2.68,RU,1704295416
530,kendari,-3.945,122.4989,24.91,93,100,1.1,ID,1704295495
531,bhainsdehi,21.6467,77.6325,19.0,48,26,1.61,IN,1704295495
532,noumea,-22.2763,166.4572,24.99,77,3,4.92,NC,1704295384
533,kegen,43.0197,79.2203,-12.59,83,77,2.74,KZ,1704295495
534,benjamin constant,-4.3831,-70.0311,30.07,74,20,4.12,BR,1704295495
535,conception bay south,47.4999,-52.9981,1.69,84,28,4.37,CA,1704295496
536,edd,13.9297,41.6925,27.98,56,18,8.16,ER,1704295496
537,teknaf,20.8624,92.3058,19.04,84,0,3.07,BD,1704295496
538,gongzhuling,43.5008,124.8198,-12.19,90,23,3.6,CN,1704295496
539,kitimat,54.0524,-128.6534,2.21,69,99,0.45,CA,1704295496
540,banjar,-8.19,114.9675,27.1,83,100,0.26,ID,1704295496
541,altai,46.3722,96.2583,-17.73,60,0,1.0,MN,1704295496
542,tharad,24.3961,71.6267,18.5,31,0,4.13,IN,1704295496
543,nishinoomote,30.7333,131.0,13.09,66,100,15.18,JP,1704295496
544,borgarnes,64.5383,-21.9206,4.03,82,100,3.25,IS,1704295496
545,chengyang,27.0892,119.6453,8.17,77,3,1.09,CN,1704295489
546,liepaja,56.5419,21.0367,-12.01,79,75,10.29,LV,1704295345
547,borogontsy,62.6683,131.1683,-32.88,100,95,1.2,RU,1704295497
548,bemidji,47.4736,-94.8803,-6.64,83,100,5.14,US,1704295497
549,cabedelo,-6.9811,-34.8339,31.37,65,88,4.52,BR,1704295497
550,al bawiti,28.3492,28.8659,18.01,40,1,3.4,EG,1704295497
551,lata,40.1629,-8.3327,13.93,86,100,0.82,PT,1704295497
552,menomonie,44.8755,-91.9193,0.46,73,58,4.34,US,1704295497
553,tshabong,-26.05,22.45,36.36,14,40,3.36,BW,1704295497
